{"businesses": [{"id": "fr_cbd3gTfbYFUogUn-8KQ", "alias": "spill-the-beans-coffee-and-bagels-san-diego", "name": "Spill the Beans Coffee and Bagels", "image_url": "https://s3-media3.fl.yelpcdn.com/bphoto/YOyg7OOTQns42l-QuVsNrg/o.jpg", "is_closed": false, "url": "https://www.yelp.com/biz/spill-the-beans-coffee-and-bagels-san-diego?adjust_creative=yEbsS5-rjHqVX3RGzqRVlw&utm_campaign=yelp_api_v3&utm_medium=api_v3_business_search&utm_source=yEbsS5-rjHqVX3RGzqRVlw", "review_count": 587, "categories": [{"alias": "coffee", "title": "Coffee & Tea"}, {"alias": "bagels", "title": "Bagels"}, {"alias": "breakfast_brunch", "title": "Breakfast & Brunch"}], "rating": 4.5, "coordinates": {"latitude": 32.71123, "longitude": -117.15949}, "transactions": ["pickup", "delivery"], "price": "$", "location": {"address1": "555 Market St", "address2": null, "address3": "", "city": "San Diego", "zip_code": "92101", "country": "US", "state": "CA", "display_address": ["555 Market St", "San Diego, CA 92101"]}, "phone": "+16192333836", "display_phone": "(619) 233-3836", "distance": 517.373049159133}, {"id": "08_AfHoDbalz8GjoN8XHDg", "alias": "tired-eyes-coffee-san-diego", "name": "Tired Eyes Coffee", "image_url": "https://s3-media2.fl.yelpcdn.com/bphoto/CZlc-pCay8P00Mfetrf9Ug/o.jpg", "is_closed": false, "url": "https://www.yelp.com/biz/tired-eyes-coffee-san-diego?adjust_creative=yEbsS5-rjHqVX3RGzqRVlw&utm_campaign=yelp_api_v3&utm_medium=api_v3_business_search&utm_source=yEbsS5-rjHqVX3RGzqRVlw", "review_count": 77, "categories": [{"alias": "coffee", "title": "Coffee & Tea"}], "rating": 5.0, "coordinates": {"latitude": 32.713491, "longitude": -117.157238}, "transactions": ["delivery"], "price": "$$", "location": {"address1": "803 F St", "address2": "", "address3": null, "city": "San Diego", "zip_code": "92101", "country": "US", "state": "CA", "display_address": ["803 F St", "San Diego, CA 92101"]}, "phone": "+16199156097", "display_phone": "(619) 915-6097", "distance": 442.4368178679074}, {"id": "IYkFVPGKBRKJu8_uEoWeaA", "alias": "communal-coffee-san-diego", "name": "Communal Coffee", "image_url": "https://s3-media1.fl.yelpcdn.com/bphoto/yMrJx2Tfr0gUW5J9BMw4jQ/o.jpg", "is_closed": false, "url": "https://www.yelp.com/biz/communal-coffee-san-diego?adjust_creative=yEbsS5-rjHqVX3RGzqRVlw&utm_campaign=yelp_api_v3&utm_medium=api_v3_business_search&utm_source=yEbsS5-rjHqVX3RGzqRVlw", "review_count": 1010, "categories": [{"alias": "coffee", "title": "Coffee & Tea"}], "rating": 4.5, "coordinates": {"latitude": 32.748197022625, "longitude": -117.13921610266}, "transactions": ["delivery"], "price": "$$", "location": {"address1": "2335 University Ave", "address2": "", "address3": "", "city": "San Diego", "zip_code": "92104", "country": "US", "state": "CA", "display_address": ["2335 University Ave", "San Diego, CA 92104"]}, "phone": "+16193637737", "display_phone": "(619) 363-7737", "distance": 4148.928905419681}, {"id": "vje7WLVv-1q6iMMBK1l8RQ", "alias": "james-coffee-san-diego-7", "name": "James Coffee", "image_url": "https://s3-media4.fl.yelpcdn.com/bphoto/mSeTZ0Jff2ujRih9dWjskg/o.jpg", "is_closed": false, "url": "https://www.yelp.com/biz/james-coffee-san-diego-7?adjust_creative=yEbsS5-rjHqVX3RGzqRVlw&utm_campaign=yelp_api_v3&utm_medium=api_v3_business_search&utm_source=yEbsS5-rjHqVX3RGzqRVlw", "review_count": 750, "categories": [{"alias": "coffeeroasteries", "title": "Coffee Roasteries"}], "rating": 4.5, "coordinates": {"latitude": 32.72922, "longitude": -117.17037}, "transactions": ["delivery"], "price": "$", "location": {"address1": "2355 India St", "address2": null, "address3": "", "city": "San Diego", "zip_code": "92101", "country": "US", "state": "CA", "display_address": ["2355 India St", "San Diego, CA 92101"]}, "phone": "+16197567770", "display_phone": "(619) 756-7770", "distance": 1727.3156301782365}, {"id": "KXZmmyfO65tC5V0FUxtCEw", "alias": "the-mudbar-san-diego", "name": "The Mudbar", "image_url": "https://s3-media4.fl.yelpcdn.com/bphoto/y0hpYQCIOaJd48BazVuuig/o.jpg", "is_closed": false, "url": "https://www.yelp.com/biz/the-mudbar-san-diego?adjust_creative=yEbsS5-rjHqVX3RGzqRVlw&utm_campaign=yelp_api_v3&utm_medium=api_v3_business_search&utm_source=yEbsS5-rjHqVX3RGzqRVlw", "review_count": 71, "categories": [{"alias": "coffee", "title": "Coffee & Tea"}], "rating": 5.0, "coordinates": {"latitude": 32.7179314948545, "longitude": -117.167317253751}, "transactions": ["delivery"], "price": "$", "location": {"address1": "1230 Columbia St", "address2": null, "address3": "", "city": "San Diego", "zip_code": "92101", "country": "US", "state": "CA", "display_address": ["1230 Columbia St", "San Diego, CA 92101"]}, "phone": "+16199712914", "display_phone": "(619) 971-2914", "distance": 631.9255399188465}, {"id": "wHcZpIoNZ6smRlp9asPikg", "alias": "holsem-coffee-san-diego", "name": "Holsem Coffee", "image_url": "https://s3-media3.fl.yelpcdn.com/bphoto/s7mmptc-wa2ID37BkXyhtg/o.jpg", "is_closed": false, "url": "https://www.yelp.com/biz/holsem-coffee-san-diego?adjust_creative=yEbsS5-rjHqVX3RGzqRVlw&utm_campaign=yelp_api_v3&utm_medium=api_v3_business_search&utm_source=yEbsS5-rjHqVX3RGzqRVlw", "review_count": 993, "categories": [{"alias": "cafes", "title": "Cafes"}, {"alias": "coffee", "title": "Coffee & Tea"}], "rating": 4.5, "coordinates": {"latitude": 32.7480812, "longitude": -117.1306915}, "transactions": ["pickup", "delivery"], "price": "$", "location": {"address1": "2911 University Ave", "address2": "", "address3": "", "city": "San Diego", "zip_code": "92104", "country": "US", "state": "CA", "display_address": ["2911 University Ave", "San Diego, CA 92104"]}, "phone": "+18584299361", "display_phone": "(858) 429-9361", "distance": 4596.410669377833}, {"id": "0Wzg2_HC3Gq-ncXb_Bj-Tw", "alias": "blue-bottle-coffee-san-diego-6", "name": "Blue Bottle Coffee", "image_url": "https://s3-media2.fl.yelpcdn.com/bphoto/udrA-HtGaqWn5LI8TQZI8A/o.jpg", "is_closed": false, "url": "https://www.yelp.com/biz/blue-bottle-coffee-san-diego-6?adjust_creative=yEbsS5-rjHqVX3RGzqRVlw&utm_campaign=yelp_api_v3&utm_medium=api_v3_business_search&utm_source=yEbsS5-rjHqVX3RGzqRVlw", "review_count": 49, "categories": [{"alias": "coffee", "title": "Coffee & Tea"}], "rating": 5.0, "coordinates": {"latitude": 32.715898, "longitude": -117.163444}, "transactions": [], "price": "$$", "location": {"address1": "180 Broadway", "address2": "Ste 101", "address3": null, "city": "San Diego", "zip_code": "92101", "country": "US", "state": "CA", "display_address": ["180 Broadway", "Ste 101", "San Diego, CA 92101"]}, "phone": "+15106533394", "display_phone": "(510) 653-3394", "distance": 221.24377364475927}, {"id": "yT0MV3IR74Sg1KX6E1g4KA", "alias": "copa-vida-san-diego", "name": "Copa Vida", "image_url": "https://s3-media3.fl.yelpcdn.com/bphoto/DdSq3wqsK0vFLZf0Ilb1aA/o.jpg", "is_closed": false, "url": "https://www.yelp.com/biz/copa-vida-san-diego?adjust_creative=yEbsS5-rjHqVX3RGzqRVlw&utm_campaign=yelp_api_v3&utm_medium=api_v3_business_search&utm_source=yEbsS5-rjHqVX3RGzqRVlw", "review_count": 664, "categories": [{"alias": "cafes", "title": "Cafes"}, {"alias": "coffee", "title": "Coffee & Tea"}, {"alias": "newamerican", "title": "American (New)"}], "rating": 4.5, "coordinates": {"latitude": 32.7092551, "longitude": -117.1564399}, "transactions": ["pickup", "delivery"], "price": "$", "location": {"address1": "905 J St", "address2": null, "address3": "", "city": "San Diego", "zip_code": "92101", "country": "US", "state": "CA", "display_address": ["905 J St", "San Diego, CA 92101"]}, "phone": "+16195017529", "display_phone": "(619) 501-7529", "distance": 851.8440609196172}, {"id": "Zwk_hV1ub3kNH6UXrBqMcA", "alias": "elixir-espresso-bar-san-diego", "name": "Elixir Espresso Bar", "image_url": "https://s3-media2.fl.yelpcdn.com/bphoto/giad6zCjSQChPqXpJuX5Iw/o.jpg", "is_closed": false, "url": "https://www.yelp.com/biz/elixir-espresso-bar-san-diego?adjust_creative=yEbsS5-rjHqVX3RGzqRVlw&utm_campaign=yelp_api_v3&utm_medium=api_v3_business_search&utm_source=yEbsS5-rjHqVX3RGzqRVlw", "review_count": 246, "categories": [{"alias": "coffee", "title": "Coffee & Tea"}, {"alias": "desserts", "title": "Desserts"}, {"alias": "gelato", "title": "Gelato"}], "rating": 4.5, "coordinates": {"latitude": 32.7165069580078, "longitude": -117.160453796387}, "transactions": ["pickup", "delivery"], "price": "$$", "location": {"address1": "427 C St", "address2": "", "address3": "", "city": "San Diego", "zip_code": "92101", "country": "US", "state": "CA", "display_address": ["427 C St", "San Diego, CA 92101"]}, "phone": "+16196966242", "display_phone": "(619) 696-6242", "distance": 103.89472646097532}, {"id": "fmSlQjhoZ53x8aXWsDkTsg", "alias": "roast-coach-coffee-bar-san-diego-4", "name": "Roast Coach Coffee Bar", "image_url": "https://s3-media2.fl.yelpcdn.com/bphoto/_EJOrRUparxDJvD4DvLsxQ/o.jpg", "is_closed": false, "url": "https://www.yelp.com/biz/roast-coach-coffee-bar-san-diego-4?adjust_creative=yEbsS5-rjHqVX3RGzqRVlw&utm_campaign=yelp_api_v3&utm_medium=api_v3_business_search&utm_source=yEbsS5-rjHqVX3RGzqRVlw", "review_count": 188, "categories": [{"alias": "coffee", "title": "Coffee & Tea"}, {"alias": "foodstands", "title": "Food Stands"}], "rating": 5.0, "coordinates": {"latitude": 32.7089325, "longitude": -117.15898}, "transactions": ["pickup", "delivery"], "price": "$", "location": {"address1": "345 6th Ave", "address2": "", "address3": "", "city": "San Diego", "zip_code": "92101", "country": "US", "state": "CA", "display_address": ["345 6th Ave", "San Diego, CA 92101"]}, "phone": "+18054155040", "display_phone": "(805) 415-5040", "distance": 781.7753574756506}, {"id": "OML2HDJHb2g7dLvQrEh1EA", "alias": "cafe-bassam-san-diego", "name": "Cafe Bassam", "image_url": "https://s3-media2.fl.yelpcdn.com/bphoto/NIJxlaD8KaYe9o8NEbFUHw/o.jpg", "is_closed": false, "url": "https://www.yelp.com/biz/cafe-bassam-san-diego?adjust_creative=yEbsS5-rjHqVX3RGzqRVlw&utm_campaign=yelp_api_v3&utm_medium=api_v3_business_search&utm_source=yEbsS5-rjHqVX3RGzqRVlw", "review_count": 1140, "categories": [{"alias": "coffee", "title": "Coffee & Tea"}], "rating": 4.0, "coordinates": {"latitude": 32.7374099, "longitude": -117.16078}, "transactions": ["pickup", "delivery"], "price": "$$", "location": {"address1": "3088 5th Ave", "address2": "", "address3": "", "city": "San Diego", "zip_code": "92103", "country": "US", "state": "CA", "display_address": ["3088 5th Ave", "San Diego, CA 92103"]}, "phone": "+16195570173", "display_phone": "(619) 557-0173", "distance": 2424.170385589035}, {"id": "9Jqk3GkE30QQOw9Dr5GouA", "alias": "the-westbean-coffee-roasters-san-diego-3", "name": "The WestBean Coffee Roasters", "image_url": "https://s3-media3.fl.yelpcdn.com/bphoto/LML9g31yCujetxRLXltD8Q/o.jpg", "is_closed": false, "url": "https://www.yelp.com/biz/the-westbean-coffee-roasters-san-diego-3?adjust_creative=yEbsS5-rjHqVX3RGzqRVlw&utm_campaign=yelp_api_v3&utm_medium=api_v3_business_search&utm_source=yEbsS5-rjHqVX3RGzqRVlw", "review_count": 286, "categories": [{"alias": "coffeeroasteries", "title": "Coffee Roasteries"}], "rating": 4.5, "coordinates": {"latitude": 32.7159178786821, "longitude": -117.162464149296}, "transactions": ["delivery"], "price": "$", "location": {"address1": "240 Broadway", "address2": "", "address3": "", "city": "San Diego", "zip_code": "92101", "country": "US", "state": "CA", "display_address": ["240 Broadway", "San Diego, CA 92101"]}, "phone": "+16195429124", "display_phone": "(619) 542-9124", "distance": 130.41686594889603}, {"id": "tauG5lbb8BDZaAcT9C-F8w", "alias": "portal-coffee-san-diego-2", "name": "Portal Coffee", "image_url": "https://s3-media4.fl.yelpcdn.com/bphoto/PJW3pagPOcBVkDQ78ViCxg/o.jpg", "is_closed": false, "url": "https://www.yelp.com/biz/portal-coffee-san-diego-2?adjust_creative=yEbsS5-rjHqVX3RGzqRVlw&utm_campaign=yelp_api_v3&utm_medium=api_v3_business_search&utm_source=yEbsS5-rjHqVX3RGzqRVlw", "review_count": 147, "categories": [{"alias": "coffee", "title": "Coffee & Tea"}], "rating": 4.5, "coordinates": {"latitude": 32.72065, "longitude": -117.17067}, "transactions": ["pickup", "delivery"], "price": "$$", "location": {"address1": "1495 Pacific Hwy", "address2": "", "address3": null, "city": "San Diego", "zip_code": "92101", "country": "US", "state": "CA", "display_address": ["1495 Pacific Hwy", "San Diego, CA 92101"]}, "phone": "", "display_phone": "", "distance": 1057.7514879041798}, {"id": "amTYVughne2Nox_xT3LpHw", "alias": "coffee-n-talk-downtown-san-diego", "name": "Coffee 'n' Talk - Downtown", "image_url": "https://s3-media1.fl.yelpcdn.com/bphoto/uXjTsXXo2zviNIItBtDu5Q/o.jpg", "is_closed": false, "url": "https://www.yelp.com/biz/coffee-n-talk-downtown-san-diego?adjust_creative=yEbsS5-rjHqVX3RGzqRVlw&utm_campaign=yelp_api_v3&utm_medium=api_v3_business_search&utm_source=yEbsS5-rjHqVX3RGzqRVlw", "review_count": 280, "categories": [{"alias": "coffee", "title": "Coffee & Tea"}, {"alias": "breakfast_brunch", "title": "Breakfast & Brunch"}, {"alias": "icecream", "title": "Ice Cream & Frozen Yogurt"}], "rating": 4.5, "coordinates": {"latitude": 32.71738, "longitude": -117.15901}, "transactions": ["pickup", "delivery"], "price": "$", "location": {"address1": "1143 6th Ave", "address2": null, "address3": "", "city": "San Diego", "zip_code": "92101", "country": "US", "state": "CA", "display_address": ["1143 6th Ave", "San Diego, CA 92101"]}, "phone": "+16192694977", "display_phone": "(619) 269-4977", "distance": 270.19389893060264}, {"id": "83eJFhXX_JbHfqWdKTKl2g", "alias": "bird-rock-coffee-roasters-san-diego", "name": "Bird Rock Coffee Roasters", "image_url": "https://s3-media1.fl.yelpcdn.com/bphoto/Io1HVNaGV1s-pRIaHGZ7cQ/o.jpg", "is_closed": false, "url": "https://www.yelp.com/biz/bird-rock-coffee-roasters-san-diego?adjust_creative=yEbsS5-rjHqVX3RGzqRVlw&utm_campaign=yelp_api_v3&utm_medium=api_v3_business_search&utm_source=yEbsS5-rjHqVX3RGzqRVlw", "review_count": 408, "categories": [{"alias": "coffeeroasteries", "title": "Coffee Roasteries"}], "rating": 4.5, "coordinates": {"latitude": 32.7279698, "longitude": -117.170909}, "transactions": ["delivery"], "price": "$$", "location": {"address1": "2295 Kettner Blvd", "address2": "", "address3": "", "city": "San Diego", "zip_code": "92101", "country": "US", "state": "CA", "display_address": ["2295 Kettner Blvd", "San Diego, CA 92101"]}, "phone": "+18585511707", "display_phone": "(858) 551-1707", "distance": 1637.5955802871836}, {"id": "k-mJ3BqxlptvIH6O5suMHQ", "alias": "james-coffee-san-diego-6", "name": "James Coffee", "image_url": "https://s3-media1.fl.yelpcdn.com/bphoto/nMJ-1NkhztdBNj0-9i6_gw/o.jpg", "is_closed": false, "url": "https://www.yelp.com/biz/james-coffee-san-diego-6?adjust_creative=yEbsS5-rjHqVX3RGzqRVlw&utm_campaign=yelp_api_v3&utm_medium=api_v3_business_search&utm_source=yEbsS5-rjHqVX3RGzqRVlw", "review_count": 159, "categories": [{"alias": "coffee", "title": "Coffee & Tea"}], "rating": 4.5, "coordinates": {"latitude": 32.73536, "longitude": -117.16169}, "transactions": ["delivery"], "price": "$", "location": {"address1": "2870 Fourth Ave", "address2": "Ste 107", "address3": "", "city": "San Diego", "zip_code": "92103", "country": "US", "state": "CA", "display_address": ["2870 Fourth Ave", "Ste 107", "San Diego, CA 92103"]}, "phone": "+16193431477", "display_phone": "(619) 343-1477", "distance": 2188.154564923251}, {"id": "CNx-l9cresLdPcr2e8vCKg", "alias": "pappalecco-san-diego-2", "name": "Pappalecco", "image_url": "https://s3-media2.fl.yelpcdn.com/bphoto/zlf59xvPWFpVLxbOcX8P-g/o.jpg", "is_closed": false, "url": "https://www.yelp.com/biz/pappalecco-san-diego-2?adjust_creative=yEbsS5-rjHqVX3RGzqRVlw&utm_campaign=yelp_api_v3&utm_medium=api_v3_business_search&utm_source=yEbsS5-rjHqVX3RGzqRVlw", "review_count": 2643, "categories": [{"alias": "sandwiches", "title": "Sandwiches"}, {"alias": "coffee", "title": "Coffee & Tea"}, {"alias": "gelato", "title": "Gelato"}], "rating": 4.5, "coordinates": {"latitude": 32.7221199, "longitude": -117.16678}, "transactions": ["pickup", "delivery"], "price": "$", "location": {"address1": "1602 State St", "address2": "", "address3": "", "city": "San Diego", "zip_code": "92101", "country": "US", "state": "CA", "display_address": ["1602 State St", "San Diego, CA 92101"]}, "phone": "+16192384590", "display_phone": "(619) 238-4590", "distance": 876.9248711536017}, {"id": "Qh2VlgkfIrmb4NISLKXnDw", "alias": "the-mission-bay-beach-club-san-diego", "name": "The Mission Bay Beach Club", "image_url": "https://s3-media2.fl.yelpcdn.com/bphoto/5BYh1hG3f8ECe1D__cNA8g/o.jpg", "is_closed": false, "url": "https://www.yelp.com/biz/the-mission-bay-beach-club-san-diego?adjust_creative=yEbsS5-rjHqVX3RGzqRVlw&utm_campaign=yelp_api_v3&utm_medium=api_v3_business_search&utm_source=yEbsS5-rjHqVX3RGzqRVlw", "review_count": 11, "categories": [{"alias": "coffee", "title": "Coffee & Tea"}, {"alias": "bikerentals", "title": "Bike Rentals"}, {"alias": "venues", "title": "Venues & Event Spaces"}], "rating": 3.0, "coordinates": {"latitude": 32.78970729272755, "longitude": -117.2099422}, "transactions": [], "location": {"address1": "2688 E Mission Bay Dr", "address2": "", "address3": null, "city": "San Diego", "zip_code": "92109", "country": "US", "state": "CA", "display_address": ["2688 E Mission Bay Dr", "San Diego, CA 92109"]}, "phone": "+18582017551", "display_phone": "(858) 201-7551", "distance": 9408.923541085209}, {"id": "CSF_Ml0lX93-toIlkzT-Rg", "alias": "moe-coffee-san-diego", "name": "Moe Coffee", "image_url": "https://s3-media3.fl.yelpcdn.com/bphoto/NqpcM0Py_KZCvZLC_GeLpQ/o.jpg", "is_closed": false, "url": "https://www.yelp.com/biz/moe-coffee-san-diego?adjust_creative=yEbsS5-rjHqVX3RGzqRVlw&utm_campaign=yelp_api_v3&utm_medium=api_v3_business_search&utm_source=yEbsS5-rjHqVX3RGzqRVlw", "review_count": 109, "categories": [{"alias": "coffee", "title": "Coffee & Tea"}], "rating": 4.5, "coordinates": {"latitude": 32.7312944, "longitude": -117.1698944}, "transactions": ["pickup", "delivery"], "location": {"address1": "2542 State St", "address2": null, "address3": "", "city": "San Diego", "zip_code": "92101", "country": "US", "state": "CA", "display_address": ["2542 State St", "San Diego, CA 92101"]}, "phone": "+16195104972", "display_phone": "(619) 510-4972", "distance": 1916.1852923152726}, {"id": "Rpw3xRZrl4SgJ7IKM9LzRQ", "alias": "spill-the-beans-san-diego-2", "name": "Spill the Beans", "image_url": "https://s3-media2.fl.yelpcdn.com/bphoto/4dcA7zoIapIi2UWaUFy7qQ/o.jpg", "is_closed": false, "url": "https://www.yelp.com/biz/spill-the-beans-san-diego-2?adjust_creative=yEbsS5-rjHqVX3RGzqRVlw&utm_campaign=yelp_api_v3&utm_medium=api_v3_business_search&utm_source=yEbsS5-rjHqVX3RGzqRVlw", "review_count": 89, "categories": [{"alias": "coffee", "title": "Coffee & Tea"}, {"alias": "bagels", "title": "Bagels"}], "rating": 3.5, "coordinates": {"latitude": 32.70862393837187, "longitude": -117.16856608374043}, "transactions": [], "price": "$$", "location": {"address1": "813 W Harbor Dr", "address2": "Unit C", "address3": null, "city": "San Diego", "zip_code": "92101", "country": "US", "state": "CA", "display_address": ["813 W Harbor Dr", "Unit C", "San Diego, CA 92101"]}, "phone": "+16192333836", "display_phone": "(619) 233-3836", "distance": 1055.9504885736912}], "total": 240, "region": {"center": {"longitude": -117.161087, "latitude": 32.715736}}}